slug,name,area_of_reference,point_of_reference,lat,lon
us--ny-new-york-city-downtown-manhattan,US: NY: New York City: Downtown Manhattan,SoHo,Spring Street subway station,40.7223,-73.9972
us--ny-new-york-city-midtown-manhattan,US: NY: New York City: Midtown Manhattan,Times Square,Times Square-42nd Street subway station,40.7556,-73.9858
us--ny-new-york-city-upper-east-side,US: NY: New York City: Upper East Side,Yorkville,86th Street (Lexington Avenue) subway station,40.7793,-73.9556
us--ny-new-york-city-upper-west-side,US: NY: New York City: Upper West Side,Upper West Side,86th Street (Broadway) subway station,40.7884,-73.9769
us--ny-new-york-city-uptown-manhattan,US: NY: New York City: Uptown Manhattan,Harlem,125th Street (Lenox Avenue) subway station,40.8074,-73.9452
us--ny-new-york-city-upper-manhattan,US: NY: New York City: Upper Manhattan,Washington Heights,168th Street subway station,40.8408,-73.9395
