slug,name,area_of_reference,point_of_reference,lat,lon
cl--region-metropolitana-santiago-centro,CL: Región Metropolitana: Santiago Centro,Santiago Centro,Plaza de Armas de Santiago,-33.43779,-70.65054
cl--region-metropolitana-santiago-oriente,CL: Región Metropolitana: Santiago Oriente,Las Condes,Estación de metro Manquehue,-33.40951,-70.56978
cl--region-metropolitana-santiago-suroriente,CL: Región Metropolitana: Santiago Suroriente,Lo Cañas,Terminal María Angélica,-33.5182,-70.556699
cl--region-metropolitana-santiago-sur,CL: Región Metropolitana: Santiago Sur,La Cisterna,Estación de metro La Cisterna,-33.53733,-70.66445
cl--region-metropolitana-santiago-surponiente,CL: Región Metropolitana: Santiago Surponiente,Maipú,Estación de metro Plaza de Maipú,-33.509961,-70.757318
cl--region-metropolitana-santiago-norponiente,CL: Región Metropolitana: Santiago Norponiente,Cerro Navia,Escuela Ciudad Santo Domingo De Guzmán,-33.430649,-70.72998
cl--region-metropolitana-santiago-norte,CL: Región Metropolitana: Santiago Norte,Conchalí,Estación de metro Cardenal Caro,-33.37334,-70.68634
cl--region-metropolitana-cajon-del-maipo,CL: Región Metropolitana: Cajón del Maipo,San José de Maipo,Plaza de Armas de San José de Maipo,-33.640361,-70.352883
cl--region-metropolitana-colina,CL: Región Metropolitana: Colina,Colina,Plaza de Armas de Colina,-33.202656,-70.674995
cl--region-metropolitana-melipilla,CL: Región Metropolitana: Melipilla,Melipilla,Plaza de Armas de Melipilla,-33.68559,-71.214591
cl--region-metropolitana-curacavi,CL: Región Metropolitana: Curacaví,Curacaví,Plaza de Armas de Curacaví,-33.402171,-71.12949
cl--region-metropolitana-valle-del-maipo,CL: Región Metropolitana: Valle del Maipo,Buin,Plaza de Armas de Buin,-33.73197,-70.74195
cl--valparaiso ciudad-de-valparaiso,CL: Valparaíso: Ciudad de Valparaíso,Valparaíso,Plaza O’Higgins de Valparaíso,-33.048024,-71.607481
cl--valparaiso-vina-del-mar,CL: Valparaíso: Viña del Mar,Viña del Mar,Plaza Vergara,-33.024549,-71.551777
cl--valparaiso-renaca-concon,CL: Valparaíso: Reñaca-Concón,Bosques de Montemar,Plaza Anfiteatro,-32.942608,-71.540115
cl--valparaiso-quilpue-villa-alemana,CL: Valparaíso: Quilpué-Villa Alemana,El Belloto,Estación de metro El Belloto,-33.04323,-71.40656
cl--valparaiso-placilla-casablanca,CL: Valparaíso: Placilla-Casablanca,Lo Vásquez,Santuario Purísima Virgen de Lo Vásquez,-33.256912,-71.438497
cl--valparaiso-quillota,CL: Valparaíso: Quillota,Quillota,Plaza de Armas de Quillota,-32.879979,-71.247443
cl--valparaiso-san-felipe-los-andes,CL: Valparaíso: San Felipe-Los Andes,San Rafael,Capilla de San Rafael,-32.809203,-70.643495
cl--valparaiso-san-antonio-algarrobo,CL: Valparaíso: San Antonio-Algarrobo,Las Cruces,Parroquia La Asunción de Las Cruces,-33.499654,-71.623062
cl--valparaiso-la-ligua,CL: Valparaíso: La Ligua,La Ligua,Plaza de Armas de La Ligua,-32.449387,-71.231645
ar--mendoza-mendoza-ciudad,AR: Mendoza: Mendoza Ciudad,Mendoza,Plaza Independencia,-32.889719,-68.844538
ar--mendoza-las-heras,AR: Mendoza: Las Heras,Las Heras,Plaza Marcos Burgos,-32.850358,-68.840654
ar--mendoza-guaymallen,AR: Mendoza: Guaymallén,Villa Nueva,Plaza Mayor,-32.900072,-68.787616
ar--mendoza-godoy-cruz,AR: Mendoza: Godoy Cruz,Godoy Cruz,Plaza Godoy Cruz,-32.92527,-68.84439
ar--mendoza-maipu-lujan-de-cuyo,AR: Mendoza: Maipú-Luján de Cuyo,Drummond,Finca Don Miguel,-33.001603,-68.856999
ar--mendoza-san-martin,AR: Mendoza: San Martín,San Martín,Plaza San Martín,-33.080372,-68.470552
ar--mendoza-valle-de-uco,AR: Mendoza: Valle de Uco,Tunuyán,Plaza General San Martín,-33.581237,-69.015437
ar--mendoza-san-rafael,AR: Mendoza: San Rafael,San Rafael,Plaza San Martín,-34.612932,-68.330508
ar--mendoza-malargue,AR: Mendoza: Malargüe,Malargüe,Plaza General San Martín,-35.468373,-69.584838
ar--mendoza-santa-rosa-la-paz,AR: Mendoza: Santa Rosa-La Paz,La Dormida,Plaza de La Dormida,-33.346694,-67.917244
ar--mendoza-general-alvear,AR: Mendoza: General Alvear,General Alvear,Plaza Carlos Maria de Alvear,-34.977456,-67.696413
cl--o-higgins-rancagua,CL: O’Higgins: Rancagua,Rancagua,Plaza de Los Héroes,-34.170285,-70.740774
cl--o-higgins-valle-de-colchagua,CL: O’Higgins: Valle de Colchagua,San Fernando,Plaza de Armas de San Fernando,-34.583859,-70.989157
cl--o-higgins-pichilemu,CL: O’Higgins: Pichilemu,Pichilemu,Plaza Arturo Prat,-34.385038,-72.00506
cl--maule-talca,CL: Maule: Talca,Talca,Plaza de Armas de Talca,-35.42652,-71.66607
cl--maule-curico,CL: Maule: Curicó,Curicó,Plaza de Curicó,-34.985333,-71.239386
cl--maule-linares,CL: Maule: Linares,Linares,Plaza de Armas de Linares,-35.84547,-71.59801
cl--maule-constitucion,CL: Maule: Constitución,Constitución,Plaza de Armas de Constitución,-35.331864,-72.411886
cl--maule-parral,CL: Maule: Parral,Parral,Plaza de Parral,-36.14149,-71.82226
cl--maule-cauquenes,CL: Maule: Cauquenes,Cauquenes,Plaza de Armas de Cauquenes,-35.96711,-72.31553
cl--coquimbo-la-serena,CL: Coquimbo: La Serena,La Serena,Plaza de Armas de La Serena,-29.90271,-71.25205
cl--coquimbo-coquimbo,CL: Coquimbo: Coquimbo,Coquimbo,Plaza de Armas de Coquimbo,-29.953213,-71.337984
cl--coquimbo-ovalle,CL: Coquimbo: Ovalle,Ovalle,Plaza de Armas de Ovalle,-30.603081,-71.202993
cl--coquimbo-illapel,CL: Coquimbo: Illapel,Illapel,Plaza de Illapel,-31.632771,-71.168329
ar--san-juan-san-juan-ciudad,AR: San Juan: San Juan Ciudad,San Juan,Plaza 25 de Mayo,-31.53715,-68.52499
ar--san-juan-caucete,AR: San Juan: Caucete,Caucete,Plaza Manuel Belgrano,-31.651459,-68.282111
ar--san-juan-jachal,AR: San Juan: Jáchal,San José de Jáchal,Plaza San Martín,-30.241639,-68.746637
cl--biobio-concepcion-centro,CL: Biobío: Concepción Centro,Concepción,Plaza Carlos Condell,-36.827059,-73.050274
cl--biobio-talcahuano,CL: Biobío: Talcahuano,Talcahuano,Plaza de Armas de Talcahuano,-36.714501,-73.114153
cl--biobio-coronel-lota,CL: Biobío: Coronel-Lota,Coronel,Estación de tren Coronel,-37.02456,-73.15088
cl--nuble-chillan,CL: Ñuble: Chillán,Chillán,Plaza de Armas de Chillán,-36.60665,-72.10329
cl--biobio-los-angeles,CL: Biobío: Los Ángeles,Los Ángeles,Plaza de Armas de Los Ángeles,-37.470741,-72.351633
cl--nuble-quirihue,CL: Ñuble: Quirihue,Quirihue,Plaza de Armas de Quirihue,-36.282704,-72.540858
cl--biobio-arauco,CL: Biobío: Arauco,Lebu,Plaza de Armas de Lebu,-37.610284,-73.65611
cl--biobio-chiguayante-hualqui,CL: Biobío: Chiguayante-Hualqui,Chiguayante,Estación de tren La Leonera,-36.95129,-73.01321
cl--biobio-tome-penco,CL: Biobío: Tomé-Penco,Tomé,Escuela Básica Punta de Parra,-36.67282,-72.96126
ar--san-juan-calingasta,AR: San Juan: Calingasta,Tamberías,Plaza Domingo Faustino Sarmiento,-31.458041,-69.421695
cl--coquimbo-valle-del-elqui,CL: Coquimbo: Valle del Elqui,Vicuña,Plaza de Armas de Vicuña,-30.03406,-70.71275
cl--araucania-temuco,CL: Araucanía: Temuco,Temuco,Plaza Teodoro Schmidt,-38.735712,-72.590468
cl--araucania-angol,CL: Araucanía: Angol,Angol,Plaza de Armas de Angol,-37.79884,-72.70866
cl--araucania-villarrica-pucon,CL: Araucanía: Villarrica-Pucón,Molco,La sureña de Molco,-39.298391,-72.102936
cl--araucania-costa-araucania,CL: Araucanía: Costa Araucanía,Teodoro Schmidt,Plaza Teodoro Schmidt,-38.996751,-73.089203
ar--neuquen-neuquen-centenario-plottier,AR: Neuquén: Neuquén-Centenario-Plottier,Gran Neuquén Norte,Plaza NIDO 7 de Mayo,-38.923214,-68.124614
ar--neuquen-zapala,AR: Neuquén: Zapala,Zapala,Monumento a los Primeros Pobladores,-38.900648,-70.066895
ar--neuquen-cutral-co,AR: Neuquén: Cutral Có,Cutral Có,Plaza San Martín,-38.937877,-69.229392
ar--neuquen-san-martin-junin-de-los-andes,AR: Neuquén: San Martín-Junín de los Andes,Lácar,Aeropuerto Aviador Carlos Campos,-40.0752,-71.13399
ar--neuquen-rincon-de-los-sauces,AR: Neuquén: Rincón de los Sauces,Rincón de los Sauces,Plaza San Martín,-37.39012,-68.92533
ar--neuquen-chos-malal,AR: Neuquén: Chos Malal,Chos Malal,Plaza Sarmiento,-37.3785,-70.271988
ar--neuquen-villa-la-angostura,AR: Neuquén: Villa La Angostura,Villa La Angostura,Plaza San Martín,-40.76189,-71.64792
cl--los-rios-valdivia,CL: Los Ríos: Valdivia,Valdivia,Plaza de la República,-39.8142,-73.245898
cl--los-rios-ranco,CL: Los Ríos: Ranco,Pindaco,Escuela Particular Nueva Pindaco,-40.286806,-72.782278
cl--los-rios-panguipulli,CL: Los Ríos: Panguipulli,Panguipulli,Plaza Prat,-39.641979,-72.333373
cl--los-lagos-osorno,CL: Los Lagos: Osorno,Osorno,Plaza de Armas de Osorno,-40.57373,-73.13586
cl--los-lagos-lago-llanquihue,CL: Los Lagos: Lago Llanquihue,Llanquihue,Plaza Llanquihue,-41.2573,-73.00469
cl--los-lagos-puerto-montt,CL: Los Lagos: Puerto Montt,Puerto Montt,Plaza de Armas de Puerto Montt,-41.471796,-72.939595
cl--chiloe-ancud,CL: Chiloé: Ancud,Ancud,Plaza de Armas de Ancud,-41.868135,-73.828747
cl--chiloe-castro,CL: Chiloé: Castro,Castro,Plaza de Armas de Castro,-42.4823,-73.76435
cl--chiloe-quellon,CL: Chiloé: Quellón,Quellón,Plaza de Armas de Quellón,-43.119941,-73.620415
cl--los-lagos-futaleufu-chaiten,CL: Los Lagos: Futaleufú-Chaitén,Villa Santa Lucía,Capilla Villa Santa Lucía,-43.415191,-72.367308
ar--rio-negro-san-carlos-de-bariloche,AR: Río Negro: San Carlos de Bariloche,San Carlos de Bariloche,Museo Perito Moreno,-41.133297,-71.309499
ar--rio-negro-cipolletti-general-roca,AR: Río Negro: Cipolletti-General Roca,Allen,Estación de tren Allen,-38.97673,-67.82575
ar--rio-negro-viedma,AR: Río Negro: Viedma,Viedma,Plaza San Martín,-40.80838,-62.99479
ar--rio-negro-san-antonio-oeste,AR: Río Negro: San Antonio Oeste,San Antonio Oeste,Plaza Centenario,-40.730174,-64.939059
ar--rio-negro-el-bolson,AR: Río Negro: El Bolsón,El Bolsón,Plaza Gobernador Pagano,-41.964901,-71.53482
ar--rio-negro-choele-choel,AR: Río Negro: Choele Choel,Choele Choel,Biblioteca Popular Nicolás Avellaneda,-39.291954,-65.662228
ar--chubut-trelew-rawson,AR: Chubut: Trelew-Rawson,Trelew,Policia entre Trelew y Rawson,-43.29558,-65.20107
ar--chubut-comodoro-rivadavia,AR: Chubut: Comodoro Rivadavia,Comodoro Rivadavia,Plaza de la Soberanía,-45.86193,-67.47335
ar--chubut-puerto-madryn,AR: Chubut: Puerto Madryn,Puerto Madryn,Plaza San Martín,-42.76727,-65.03666
ar--chubut-esquel,AR: Chubut: Esquel,Esquel,Plaza San Martín,-42.91713,-71.32163
ar--chubut-sarmiento,AR: Chubut: Sarmiento,Sarmiento,Plaza San Martín,-45.58681,-69.06881
ar--santa-cruz-caleta-olivia-pino-truncado,AR: Santa Cruz: Caleta Olivia-Pino Truncado,Cañadon Leon,Area Industrial Cañadon Leon,-46.62806,-67.76711
ar--santa-cruz-puerto-deseado,AR: Santa Cruz: Puerto Deseado,Puerto Deseado,Plaza San Martín,-47.75162,-65.90136
cl--atacama-copiapo,CL: Atacama: Copiapó,Copiapó,Plaza de Armas de Copiapó,-27.366579,-70.332338
cl--atacama-vallenar,CL: Atacama: Vallenar,Vallenar,Plaza Ambrosio O’Higgins,-28.575055,-70.761652
cl--atacama-caldera,CL: Atacama: Caldera,Caldera,Plaza Carlos Condeil de Caldera,-27.067498,-70.822361
cl--atacama-chanaral,CL: Atacama: Chañaral,Chañaral,Plaza de Armas de Chañaral,-26.347929,-70.62236
ar--la-rioja-la-rioja-ciudad,AR: La Rioja: La Rioja Ciudad,La Rioja,Plaza 25 de Mayo,-29.412699,-66.855862
ar--la-rioja-chilecito,AR: La Rioja: Chilecito,Chilecito,Plaza Caudillos Federales,-29.164992,-67.49544
ar--la-rioja-chamical,AR: La Rioja: Chamical,Chamical,Plaza San Martín,-30.359476,-66.312951
ar--la-rioja-aimogasta,AR: La Rioja: Aimogasta,Aimogasta,Plaza San Martín,-28.55363,-66.8135
ar--la-rioja-chepes,AR: La Rioja: Chepes,Chepes,Estación de tren Chepes,-31.341208,-66.592072
ar--catamarca-san-fernando-del-valle-de-catamarca,AR: Catamarca: San Fernando del Valle de Catamarca,San Fernando del Valle de Catamarca,Plaza 25 de Mayo,-28.46893,-65.77905
ar--catamarca-belen,AR: Catamarca: Belén,Belén,Plaza de Belén,-27.64956,-67.02647
ar--catamarca-andalgala,AR: Catamarca: Andalgalá,Andalgalá,Plaza 9 de Julio,-27.583017,-66.315504
ar--catamarca-tinogasta,AR: Catamarca: Tinogasta,Tinogasta,Plaza de Tinogasta,-28.065462,-67.564491
ar--catamarca-santa-maria,AR: Catamarca: Santa María,Santa María,Plaza Manuel Belgrano,-26.694518,-66.04811
cl--antofagasta-taltal,CL: Antofagasta: Taltal,Taltal,Plaza de Armas de Taltal,-25.40799,-70.4859
cl--antofagasta-antofagasta-ciudad,CL: Antofagasta: Antofagasta Ciudad,Antofagasta,Plaza Colón,-23.646357,-70.398009
cl--antofagasta-calama-san-pedro-de-atacama,CL: Antofagasta: Calama-San Pedro de Atacama,Calama,Pozo Lastrero 2,-22.63966,-68.58988
cl--antofagasta-tocopilla,CL: Antofagasta: Tocopilla,Tocopilla,Plaza Cuatro Caminos,-22.088714,-70.196087
cl--antofagasta-mejillones,CL: Antofagasta: Mejillones,Mejillones,Plaza Mejillones,-23.100721,-70.448719
ar--salta-salta-ciudad,AR: Salta: Salta Ciudad,Salta,Plaza 9 de Julio,-24.78922,-65.41034
ar--salta-los-andes,AR: Salta: Los Andes,San Antonio de los Cobres,Estación de tren San Antonio de los Cobres,-24.226941,-66.316127
ar--salta-metan,AR: Salta: Metán,San José de Metán,Plaza San Martín,-25.49695,-64.97085
ar--salta-rivadavia,AR: Salta: Rivadavia,Coronel Juan Solá,Plaza Central de Morillo,-23.47044,-62.88785
ar--salta-tartagal,AR: Salta: Tartagal,Tartagal,Plaza San Martín,-22.516715,-63.805665
ar--salta-oran,AR: Salta: Orán,San Ramón de la Nueva Orán,Plaza General Pizarro,-23.128624,-64.321496
ar--salta-cafayate,AR: Salta: Cafayate,Cafayate,Plaza 20 de Febrero,-26.072883,-65.976044
ar--jujuy-san-salvador-de-jujuy,AR: Jujuy: San Salvador de Jujuy,San Salvador de Jujuy,Palacio de Gobierno de Jujuy,-24.186657,-65.299441
ar--jujuy-san-pedro-de-jujuy,AR: Jujuy: San Pedro de Jujuy,San Pedro de Jujuy,Plaza Belgrano,-24.231659,-64.867991
ar--jujuy-ledesma,AR: Jujuy: Ledesma,Libertador General San Martín,Plaza San Martín,-23.81518,-64.7929
ar--jujuy-humahuaca,AR: Jujuy: Humahuaca,Humahuaca,Plaza San Martín,-23.205913,-65.347468
cl--tarapaca-iquique,CL: Tarapacá: Iquique,Iquique,Plaza Prat,-20.214064,-70.152426
cl--arica-parinacota,CL: Arica-Parinacota,Arica,Plaza Vicuña Mackenna,-18.478271,-70.32221
bo--potosi-potosi-ciudad,BO: Potosí: Potosí Ciudad,Potosí,Plaza 10 de Noviembre,-19.589181,-65.753517
bo--potosi-llallagua,BO: Potosí: Llallagua,Llallagua,Plaza 6 de Agosto,-18.423049,-66.585485
bo--potosi-tupiza,BO: Potosí: Tupiza,Tupiza,Plaza Independencia,-21.44407,-65.72067
bo--potosi-uyuni,BO: Potosí: Uyuni,Uyuni,Plaza Central de Uyuni,-20.460987,-66.821659
bo-ar--potosi-jujuy-villazon-la-quiaca,BO-AR: Potosí-Jujuy: Villazón-La Quiaca,Villazón,Plaza 6 de Agosto,-22.09098,-65.59565
bo--oruro-oruro-ciudad,BO: Oruro: Oruro Ciudad,Oruro,Plaza 10 de Febrero,-17.969571,-67.114765
bo--oruro-challapata,BO: Oruro: Challapata,Challapata,Plaza Eduardo Abaroa,-18.90242,-66.77471
bo--la-paz-la-paz-ciudad,BO: La Paz: La Paz Ciudad,La Paz,Plaza Murillo,-16.495683,-68.133591
bo--la-paz-el-alto,BO: La Paz: El Alto,El Alto,Plaza 10 de Noviembre,-16.523418,-68.150859
bo--la-paz-viacha,BO: La Paz: Viacha,Viacha,Plaza Mariscal José Ballivián,-16.653487,-68.301648
bo--la-paz-patacamaya,BO: La Paz: Patacamaya,Patacamaya,Plaza Calama,-17.23292,-67.920281
bo--la-paz-caranavi,BO: La Paz: Caranavi,Caranavi,Plaza Simón Bolívar,-15.833787,-67.565897
bo-pe--la-paz-puno-copacabana-yunguyo,BO-PE: La Paz-Puno: Copacabana-Yunguyo,Copacabana,Plaza 2 de Febrero,-16.165378,-69.085422
bo--la-paz-achacachi,BO: La Paz: Achacachi,Achacachi,Plaza Mariscal Antonio José de Sucre,-16.044045,-68.685011
pe--tacna,PE: Tacna,Tacna,Paseo Cívico de Tacna,-18.013958,-70.25119
pe-bo--puno-la-paz-desaguadero,PE-BO: Puno-La Paz: Desaguadero,Desaguadero,Plaza de Armas de Desaguadero,-16.564925,-69.040253
pe--moquegua-moquegua,PE: Moquegua: Moquegua,Moquegua,Plaza de Armas de Moquegua,-17.193787,-70.934644
pe--moquegua-ilo,PE: Moquegua: Ilo,Ilo,Plaza de Armas de Ilo,-17.645821,-71.34529
pe--arequipa-arequipa-centro,PE: Arequipa: Arequipa Centro,Arequipa,Plaza de Armas de Arequipa,-16.39882,-71.536971
pe--arequipa-arequipa-norte,PE: Arequipa: Arequipa Norte,Cerro Colorado,Comisaría PNP Zamácola,-16.351485,-71.563246
pe--arequipa-arequipa-sur,PE: Arequipa: Arequipa Sur,Socabaya,Virgen de Chapi,-16.45079,-71.536553
pe--arequipa-arequipa-este,PE: Arequipa: Arequipa Este,Miguel Grau,Comisaría PNP Miguel Grau,-16.408675,-71.483982
pe--arequipa-arequipa-oeste,PE: Arequipa: Arequipa Oeste,Sachaca,Cristo Blanco,-16.415884,-71.593963
pe--arequipa-pedregal-majes,PE: Arequipa: Pedregal-Majes,El Pedregal,Plaza de Armas de El Pedregal,-16.361947,-72.190749
pe--arequipa-islay,PE: Arequipa: Islay,Mollendo,Plaza de Armas de Mollendo,-17.029217,-72.015494
pe--arequipa-camana,PE: Arequipa: Camaná,Camaná,Plaza de Armas de Camaná,-16.624925,-72.711602
pe--arequipa-caraveli,PE: Arequipa: Caravelí,Chala,Plaza de Armas de Chala,-15.865937,-74.246893
pe--ica-nazca,PE: Ica: Nazca,Nazca,Plaza de Armas de Nazca,-14.82739,-74.937079
pe--ica-ica,PE: Ica: Ica,Ica,Plaza de Armas de Ica,-14.064018,-75.729087
pe--ica-pisco,PE: Ica: Pisco,Pisco,Plaza de Armas de Pisco,-13.709947,-76.203066
pe--ica-chincha,PE: Ica: Chincha,Chincha Alta,Plaza de Armas de Chincha,-13.417595,-76.132612
pe--lima-lima-centro,PE: Lima: Lima Centro,Lima,Plaza de Armas de Lima,-12.045941,-77.030581
pe--lima-lima-norte,PE: Lima: Lima Norte,Puente Piedra,Plaza de Puente Piedra,-11.866763,-77.077686
pe--lima-lima-este,PE: Lima: Lima Este,Santa Clara,Parque Cívico de Santa Clara,-12.017825,-76.884258
pe--lima-lima-sur,PE: Lima: Lima Sur,Villa El Salvador,Municipalidad de Villa El Salvador,-12.213188,-76.937197
pe--lima-callao,PE: Lima: Callao,Callao,Plaza Garibaldi,-12.052263,-77.13913
pe--lima-lima-moderna,PE: Lima: Lima Moderna,Miraflores,Plaza Centroamérica,-12.118963,-77.04279
pe--lima-canete,PE: Lima: Cañete,Cañete,Plaza de Armas de Cañete,-13.077759,-76.387462
pe--junin-valle-del-mantaro,PE: Junín: Valle del Mantaro,Jauja,Plaza de Armas de Jauja,-11.775228,-75.50008
pe--junin-huancayo-centro,PE: Junín: Huancayo Centro,Huancayo,Plaza de la Constitución,-12.068043,-75.21016
pe--junin-huancayo-norte-concepcion,PE: Junín: Huancayo Norte-Concepción,El Tambo,Universidad Tecnológica del Perú Huancayo,-12.022846,-75.23401
pe--junin-huancayo-sur,PE: Junín: Huancayo Sur,Huancán,Sitio Arqueológico de Wariwillka,-12.117638,-75.206126
pe--junin-huancayo-oeste-chupaca,PE: Junín: Huancayo Oeste-Chupaca,Chupaca,Puente la Eternidad,-12.05731,-75.271829
pe--ayacucho-lucanas,PE: Ayacucho: Lucanas,Puquio,Plaza Mayor de Puquio,-14.693994,-74.124177
pe--apurimac-aymaraes,PE: Apurímac: Aymaraes,Chalhuanca,Plaza de Armas de Chalhuanca,-14.294567,-73.244326
pe--apurimac-abancay,PE: Apurímac: Abancay,Abancay,Plaza de Armas de Abancay,-13.637359,-72.878881
pe--cusco-cusco-centro,PE: Cusco: Cusco Centro,Cusco,Plaza de Armas de Cusco,-13.516753,-71.978812
pe--cusco-cusco-san-sebastian,PE: Cusco: Cusco San Sebastián,San Sebastián,Comisaría PNP San Sebastián,-13.532295,-71.92645
pe--cusco-cusco-san-jeronimo,PE: Cusco: Cusco San Jerónimo,San Jerónimo,Plaza de Armas de San Jerónimo,-13.544505,-71.884006
pe--cusco-valle-sagrado,PE: Cusco: Valle Sagrado,Urubamba,Plaza de Armas de Urubamba,-13.305925,-72.115985
pe--arequipa-caylloma,PE: Arequipa: Caylloma,Chivay,Plaza de Armas de Chivay,-15.636722,-71.602219
pe--puno-puno,PE: Puno: Puno,Puno,Plaza de Armas de Puno,-15.840589,-70.027987
pe--puno-juliaca,PE: Puno: Juliaca,Juliaca,Plaza de Armas de Juliaca,-15.49321,-70.135635
pe--puno-collao-chuquito,PE: Puno: Collao-Chuquito,Mulla Contihueco Hirpani,Centro de Salud Mullacontihueco,-16.17576,-69.540625
pe--puno-corredor-cultural-quechua,PE: Puno: Corredor Cultural Quechua,Tirapata,Plaza de Tirapata,-14.954793,-70.403202
pe--cusco-canchis,PE: Cusco: Canchis,Sicuani,Plaza de Armas de Sicuani,-14.272941,-71.226597
pe--cusco-espinar,PE: Cusco: Espinar,Yauri,Plaza de Armas de Yauri,-14.793036,-71.412841
pe--cusco-quispicanchi,PE: Cusco: Quispicanchi,Huaraypata,Escuela Primaria de Huaraypata,-13.778396,-71.576394
pe--lima-huarochiri,PE: Lima: Huarochirí,Matucana,Plaza de Armas de Matucana,-11.844734,-76.386105
pe--ayacucho-huamanga,PE: Ayacucho: Huamanga,Ayacucho,Plaza de Armas de Ayacucho,-13.160425,-74.225757
pe--huancavelica-huancavelica,PE: Huancavelica: Huancavelica,Huancavelica,Plaza de Armas de Huancavelica,-12.787246,-74.973122
pe--huancavelica-acobamba-angaraes-churcampa,PE: Huancavelica: Acobamba-Angaraes-Churcampa,Acobamba,Plaza de Armas de Acobamba,-12.842698,-74.569364
pe--ayacucho-huanta,PE: Ayacucho: Huanta,Huanta,Plaza de Armas de Huanta,-12.939899,-74.247939
pe--apurimac-andahuaylas,PE: Apurímac: Andahuaylas,Andahuaylas,Plaza de Armas de Andahuaylas,-13.656392,-73.389949
pe--ica-marcona,PE: Ica: Marcona,San Juan de Marcona,Plaza de Armas de Marcona,-15.36235,-75.165909
pe--cusco-quillabamba,PE: Cusco: Quillabamba,Quillabamba,Plaza de Armas de Quillabamba,-12.863336,-72.692928
pe--ayacucho-parinacochas,PE: Ayacucho: Parinacochas,Coracora,Plaza de Armas de Coracora,-15.016917,-73.780956
pe--apurimac-cusco-corredor-minero-del-sur,PE: Apurímac-Cusco: Corredor Minero del Sur,Challhuahuacho,Plaza de Armas de Challhuahuacho,-14.118657,-72.246507
pe--ayacucho-fajardo-cangallo-sancos-vilcashuaman-sucre,PE: Ayacucho: Fajardo-Cangallo-Sancos-Vilcashuamán-Sucre,Huancapi,Plaza de Armas de Huancapi,-13.752449,-74.066364
pe--arequipa-castilla-condesuyos-cotahuasi,PE: Arequipa: Castilla-Condesuyos-Cotahuasi,Chuquibamba,Plaza de Armas de Chuquibamba,-15.839211,-72.651483
pe--cusco-paucartambo,PE: Cusco: Paucartambo,Paucartambo,Plaza de Armas de Paucartambo,-13.317535,-71.59602
pe--lima-yauyos,PE: Lima: Yauyos,Yauyos,Plaza de Armas de Yauyos,-12.459675,-75.918676
pe--huancavelica-castrovirreyna-huaytara,PE: Huancavelica: Castrovirreyna-Huaytará,Castrovirreyna,Plaza de Armas de Castrovirreyna,-13.283387,-75.319176
pe--puno-carabaya-sandia,PE: Puno: Carabaya-Sandia,Crucero,Plaza de Armas de Crucero,-14.361194,-70.02354
pe--cusco-ayacucho-vraem,PE: Cusco-Ayacucho: VRAEM,Pichari,Plaza de Armas de Pichari,-12.519416,-73.82849
pe--ayacucho-la-mar,PE: Ayacucho: La Mar,San Miguel,Plaza de Armas de San Miguel,-13.012633,-73.980979
pe--huancavelica-tayacaja,PE: Huancavelica: Tayacaja,Pampas,Plaza de Armas de Pampas,-12.398752,-74.868479
pe--puno-putina-huancane-moho,PE: Puno: Putina-Huancané-Moho,Quilcapuncu,Plaza de Armas de Quilcapuncu,-14.89297,-69.7304
pe--junin-tarma-junin-yauli,PE: Junín: Tarma-Junín-Yauli,Tarma,Plaza de Armas de Tarma,-11.419972,-75.68769
pe--junin-chanchamayo,PE: Junín: Chanchamayo,La Merced,Plaza de Armas de La Merced,-11.056067,-75.328244
pe--junin-satipo,PE: Junín: Satipo,Satipo,Plaza de Armas de Satipo,-11.253943,-74.636983
pe--lima-huaral,PE: Lima: Huaral,Huaral,Plaza de Armas de Huaral,-11.495412,-77.207199
pe--lima-huaura,PE: Lima: Huaura,Huacho,Plaza de Armas de Huacho,-11.108484,-77.610388
pe--lima-barranca,PE: Lima: Barranca,Barranca,Plaza de Armas de Barranca,-10.754111,-77.760874
pe--lima-canta,PE: Lima: Canta,Canta,Plaza de Armas de Canta,-11.46695,-76.6248
pe--lima-oyon-cajatambo,PE: Lima: Oyón-Cajatambo,Oyón,Plaza de Armas de Oyón,-10.668062,-76.773142
pe--ancash-chimbote,PE: Áncash: Chimbote,Chimbote,Plaza de Armas de Chimbote,-9.074594,-78.593692
pe--ancash-nuevo-chimbote,PE: Áncash: Nuevo Chimbote,Nuevo Chimbote,Plaza de Armas de Nuevo Chimbote,-9.122076,-78.531121
pe--ancash-huaraz-callejon-de-huaylas,PE: Áncash: Huaraz-Callejón de Huaylas,Carhuaz,Plaza de Armas de Carhuaz,-9.281748,-77.646271
pe--ancash-casma,PE: Áncash: Casma,Casma,Plaza de Armas de Casma,-9.475974,-78.305477
pe--ancash-huarmey,PE: Áncash: Huarmey,Huarmey,Plaza de Armas de Huarmey,-10.06875,-78.152238
pe--ancash-zona-de-los-conchucos,PE: Áncash: Zona de los Conchucos,Sihuas,Plaza de Armas de Sihuas,-8.554676,-77.631318
pe--ancash-bolognesi-ocros,PE: Áncash: Bolognesi-Ocros,Chiquián,Plaza de Armas de Chiquián,-10.15207,-77.156897
pe--pasco-cerro-de-pasco,PE: Pasco: Cerro de Pasco,Cerro de Pasco,Plaza de Armas de Cerro de Pasco,-10.683619,-76.256184
pe--pasco-oxapampa,PE: Pasco: Oxapampa,Oxapampa,Plaza de Armas de Oxapampa,-10.574169,-75.404631
pe--huanuco-huanuco,PE: Huánuco: Huánuco,Huánuco,Plaza de Armas de Huánuco,-9.92941,-76.23977
pe--huanuco-leoncio-prado,PE: Huánuco: Leoncio Prado,Tingo María,Plaza de Armas de Tingo María,-9.298397,-76.000307
pe--huanuco-huamalies,PE: Huánuco: Huamalíes,Llata,Plaza de Armas de Llata,-9.549953,-76.815532
pe--huanuco-puerto-inca,PE: Huánuco: Puerto Inca,Puerto Inca,Plaza de Armas de Puerto Inca,-9.379311,-74.965929
pe--ucayali-padre-abad,PE: Ucayali: Padre Abad,Aguaytía,Plaza de Armas de Aguaytía,-9.03891,-75.509655
pe--ucayali-coronel-portillo,PE: Ucayali: Coronel Portillo,Pucallpa,Plaza de Armas de Pucallpa,-8.383149,-74.532301
pe--la-libertad-trujillo-centro,PE: La Libertad: Trujillo Centro,Trujillo,Plaza de Armas de Trujllo,-8.111788,-79.028687
pe--la-libertad-trujillo-norte,PE: La Libertad: Trujillo Norte,La Esperanza,Mercado Jesús de Nazaret,-8.057997,-79.055085
pe--la-libertad-trujillo-sur-moche,PE: La Libertad: Trujillo Sur-Moche,Salaverry,Plaza de Armas de Miramar,-8.179452,-78.993807
pe--la-libertad-trujillo-este,PE: La Libertad: Trujillo Este,El Porvenir,Plaza El Porvenir,-8.073825,-78.99311
pe--la-libertad-trujillo-oeste,PE: La Libertad: Trujillo Oeste,Victor Larco Herrera,Plaza Cívica de Vista Alegre,-8.138957,-79.048246
pe--huanuco-maranon,PE: Huánuco: Marañón,Huacrachuco,Plaza de Armas de Huacrachuco,-8.604445,-77.14936
pe--la-libertad-trujillo-huanchaco,PE: La Libertad: Trujillo-Huanchaco,Huanchaco,Plaza de Armas de Huanchaco,-8.079994,-79.12048
pe--la-libertad-otuzco,PE: La Libertad: Otuzco,Otuzco,Plaza de Armas de Otuzco,-7.902451,-78.565705
pe--la-libertad-sanchez-carrion,PE: La Libertad: Sánchez Carrión,Huamachuco,Plaza de Armas de Huamachuco,-7.815516,-78.048694
pe--la-libertad-viru,PE: La Libertad: Virú,Virú,Plaza de Armas de Virú,-8.414253,-78.752242
pe--la-libertad-pataz,PE: La Libertad: Pataz,Tayabamba,Plaza de Armas de Tayabamba,-8.275915,-77.296318
pe--la-libertad-santiago-de-chuco,PE: La Libertad: Santiago de Chuco,Santiago de Chuco,Plaza de Armas de Santiago de Chuco,-8.145393,-78.17329
pe--la-libertad-ascope,PE: La Libertad: Ascope,Paiján,Plaza de Armas de Paiján,-7.734285,-79.303286
pe--la-libertad-pacasmayo,PE: La Libertad: Pacasmayo,Pacasmayo,Plaza de Armas de Pacasmayo,-7.401127,-79.572247
pe--la-libertad-chepen,PE: La Libertad: Chepén,Chepén,Plaza de Armas de Chepén,-7.228442,-79.427794
pe--lambayeque-chiclayo-centro,PE: Lambayeque: Chiclayo Centro,Chiclayo,Plaza de Armas de Chiclayo,-6.771585,-79.838644
pe--lambayeque-chiclayo-sur,PE: Lambayeque: Chiclayo Sur,Reque,Plaza de Armas de Reque,-6.86527,-79.818726
pe--lambayeque-chiclayo-este,PE: Lambayeque: Chiclayo Este,Tumán,Plaza de Armas de Tumán,-6.748205,-79.702914
pe--lambayeque-chiclayo-oeste,PE: Lambayeque: Chiclayo Oeste,Pimentel,Plaza de Armas de Pimentel,-6.835793,-79.935748
pe--lambayeque-chiclayo-norte-lambayeque,PE: Lambayeque: Chiclayo Norte-Lambayeque,Lambayeque,Plaza de Armas de Lambayeque,-6.704098,-79.906188
pe--lambayeque-ferrenafe,PE: Lambayeque: Ferreñafe,Ferreñafe,Plaza de Armas de Ferreñafe,-6.639173,-79.788039
pe--lambayeque-motupe-olmos,PE: Lambayeque: Motupe-Olmos,Tongorrape,Plaza de Armas de Tongorrape,-6.054612,-79.676682
